[
  {
    "idx": 1,
    "firma": "Ing.-Büro Urbach KG",
    "strasse": "Heisenbergstr. 17",
    "plz": "50126",
    "ort": "Bergheim/Erft",
    "ist_hauptstandort": true,
    "lng": 6.62375,
    "lat": 50.947063,
    "place_name": "Heisenbergstraße 17, 50126 Bergheim, Germany"
  },
  {
    "idx": 2,
    "firma": "Ingenieurbüro Rommerskirchen - Sachverständigenbüro für Fahrzeugtechnik Inhaber: Andreas Wettstein",
    "strasse": "Daimlerstraße 37",
    "plz": "50170",
    "ort": "Kerpen",
    "ist_hauptstandort": true,
    "lng": 6.667395,
    "lat": 50.895868,
    "place_name": "Daimlerstraße 37, 50170 Kerpen, Germany"
  },
  {
    "idx": 3,
    "firma": "Sachverständigenbüro für Fahrzeugtechnik Inh. Harald Lange",
    "strasse": "Gladbacher Straße 155",
    "plz": "50189",
    "ort": "Elsdorf",
    "ist_hauptstandort": true,
    "lng": 6.556075,
    "lat": 50.941586,
    "place_name": "Gladbacher Straße 155, 50189 Elsdorf, Germany"
  },
  {
    "idx": 4,
    "firma": "Ing.-Büro Urbach KG",
    "strasse": "Zunftstr. 4b",
    "plz": "50374",
    "ort": "Erftstadt",
    "ist_hauptstandort": false,
    "lng": 6.78134,
    "lat": 50.797231,
    "place_name": "Zunftstraße 4b, 50374 Erftstadt, Germany"
  },
  {
    "idx": 5,
    "firma": "Ingenieurbüro Wester GmbH",
    "strasse": "Venloerstraße 1041",
    "plz": "50829",
    "ort": "Köln",
    "ist_hauptstandort": true,
    "lng": 6.879333,
    "lat": 50.966759,
    "place_name": "Venloer Straße 1041, 50829 Köln, Germany"
  },
  {
    "idx": 6,
    "firma": "Ingenieurbüro Rommerskirchen - Sachverständigenbüro für Fahrzeugtechnik Inhaber: Andreas Wettstein",
    "strasse": "Dieselstraße 19",
    "plz": "50859",
    "ort": "Köln",
    "ist_hauptstandort": false,
    "lng": 6.847679,
    "lat": 50.945959,
    "place_name": "Dieselstraße 19, 50859 Köln, Germany"
  },
  {
    "idx": 7,
    "firma": "Michael Schneider GmbH Kfz Sachverständige",
    "strasse": "Kelvinstr.10 - 12",
    "plz": "50996",
    "ort": "Köln",
    "ist_hauptstandort": true,
    "lng": 6.987174,
    "lat": 50.871167,
    "place_name": "Kelvinstraße 10, 50996 Köln, Germany"
  },
  {
    "idx": 8,
    "firma": "Ingenieurbüro Safety Car",
    "strasse": "Germaniastr. 3",
    "plz": "51103",
    "ort": "Köln",
    "ist_hauptstandort": true,
    "lng": 7.018313,
    "lat": 50.941666,
    "place_name": "Germaniastraße 3, 51103 Köln, Germany"
  },
  {
    "idx": 9,
    "firma": "Adams GbR",
    "strasse": "Overfeldweg 82",
    "plz": "51371",
    "ort": "Leverkusen",
    "ist_hauptstandort": true,
    "lng": 6.985705,
    "lat": 51.04104,
    "place_name": "Overfeldweg 82, 51371 Leverkusen, Germany"
  },
  {
    "idx": 10,
    "firma": "Kfz-Sachverständiger Schmitz, Inh. Sebastian Schmitz",
    "strasse": "Im Eulenflug 4",
    "plz": "51399",
    "ort": "Burscheid",
    "ist_hauptstandort": true,
    "lng": 7.106823,
    "lat": 51.086583,
    "place_name": "Im Eulenflug 4, 51399 Burscheid, Germany"
  },
  {
    "idx": 11,
    "firma": "Dipl.-Ing. W. Lütz GmbH Kfz-Sachverständigenbüro",
    "strasse": "Mülheimer Str. 222",
    "plz": "51469",
    "ort": "Bergisch Gladbach (Gronau)",
    "ist_hauptstandort": false,
    "lng": 7.11399,
    "lat": 50.98395,
    "place_name": "Mülheimer Straße 222, 51469 Bergisch Gladbach, Germany"
  },
  {
    "idx": 12,
    "firma": "Kfz Sachverständigenbüro Sebastian Dietz",
    "strasse": "Hermann-Löns-Straße 45b",
    "plz": "51469",
    "ort": "Bergisch Gladbach",
    "ist_hauptstandort": true,
    "lng": 7.102697,
    "lat": 50.987701,
    "place_name": "Hermann-Löns-Straße 45b, 51469 Bergisch Gladbach, Germany"
  },
  {
    "idx": 13,
    "firma": "Dipl.-Ing. W. Lütz GmbH Kfz-Sachverständigenbüro",
    "strasse": "Am Weidenbach 12",
    "plz": "51491",
    "ort": "Overath",
    "ist_hauptstandort": false,
    "lng": 7.296727,
    "lat": 50.942452,
    "place_name": "Am Weidenbach 12, 51491 Overath, Germany"
  },
  {
    "idx": 14,
    "firma": "Dipl.-Ing. W. Lütz GmbH Kfz-Sachverständigenbüro",
    "strasse": "Hauptstr. 141",
    "plz": "51503",
    "ort": "Rösrath",
    "ist_hauptstandort": true,
    "lng": 7.186365,
    "lat": 50.906216,
    "place_name": "Hauptstraße 141, 51503 Rösrath, Germany"
  },
  {
    "idx": 15,
    "firma": "Ingenieurbüro für Fahrzeug- und Verkehrstechnik Dipl.-Ing. Dirk Zager",
    "strasse": "Wipperfürther Str. 227",
    "plz": "51515",
    "ort": "Kürten-Biesfeld",
    "ist_hauptstandort": true,
    "lng": 7.243403,
    "lat": 51.019174,
    "place_name": "Wipperfürther Straße 227, 51515 Kürten, Germany"
  },
  {
    "idx": 16,
    "firma": "Dipl.-Ing. W. Lütz GmbH Kfz-Sachverständigenbüro",
    "strasse": "Friedrich-Engels-Str. 3",
    "plz": "51545",
    "ort": "Waldbröl",
    "ist_hauptstandort": false,
    "lng": 7.643738,
    "lat": 50.891567,
    "place_name": "Friedrich-Engels-Straße 3, 51545 Waldbröl, Germany"
  },
  {
    "idx": 17,
    "firma": "Ingenieurbüro Knitter GbR",
    "strasse": "Dieringhauser Str. 72",
    "plz": "51645",
    "ort": "Gummersbach",
    "ist_hauptstandort": true,
    "lng": 7.519077,
    "lat": 50.984492,
    "place_name": "Dieringhauser Straße 72, 51645 Gummersbach, Germany"
  },
  {
    "idx": 18,
    "firma": "Schadenszentrum Oberberg Inh.Coskun Özkan",
    "strasse": "Othestraße 40",
    "plz": "51702",
    "ort": "Bergneustadt",
    "ist_hauptstandort": true,
    "lng": 7.649887,
    "lat": 51.016046,
    "place_name": "Othestraße 40, 51702 Bergneustadt, Germany"
  },
  {
    "idx": 19,
    "firma": "KFZ Sachverständigen Büro Trump & Sturm GmbH",
    "strasse": "Grüner Weg 117",
    "plz": "52070",
    "ort": "Aachen",
    "ist_hauptstandort": false,
    "lng": 6.107722,
    "lat": 50.79542,
    "place_name": "Grüner Weg 117, 52070 Aachen, Germany"
  },
  {
    "idx": 20,
    "firma": "KFZ Sachverständigen Büro Trump & Sturm GmbH",
    "strasse": "Friedrich-Ebert-Platz 12",
    "plz": "52351",
    "ort": "Düren",
    "ist_hauptstandort": false,
    "lng": 6.494591,
    "lat": 50.804756,
    "place_name": "Friedrich-Ebert-Platz 12, 52351 Düren, Germany"
  },
  {
    "idx": 21,
    "firma": "KFZ – Gutachter Sascha Kramer",
    "strasse": "Treibbach 4",
    "plz": "52382",
    "ort": "Niederzier",
    "ist_hauptstandort": true,
    "lng": 6.468883,
    "lat": 50.883558,
    "place_name": "Treibbach 4, 52382 Niederzier, Germany"
  },
  {
    "idx": 22,
    "firma": "KFZ Sachverständigen Büro Trump & Sturm GmbH",
    "strasse": "Neusser Str. 1",
    "plz": "52428",
    "ort": "Jülich",
    "ist_hauptstandort": true,
    "lng": 6.363913,
    "lat": 50.924191,
    "place_name": "Neusser Straße 1, 52428 Jülich, Germany"
  },
  {
    "idx": 23,
    "firma": "Sachverständigenbüro Marc Limburg",
    "strasse": "Heerstraße 4",
    "plz": "52538",
    "ort": "Selfkant",
    "ist_hauptstandort": true,
    "lng": 5.93613,
    "lat": 51.026248,
    "place_name": "Heerstraße 4, 52538 Selfkant, Germany"
  },
  {
    "idx": 24,
    "firma": "Ing.-Büro Urbach KG",
    "strasse": "Bornheimer Str. 141",
    "plz": "53119",
    "ort": "Bonn",
    "ist_hauptstandort": false,
    "lng": 7.07645,
    "lat": 50.739432,
    "place_name": "Bornheimer Straße 141, 53119 Bonn, Germany"
  },
  {
    "idx": 25,
    "firma": "Steinacker Ingenieurgesellschaft mbH",
    "strasse": "Godesberger Str. 59",
    "plz": "53175",
    "ort": "Bonn",
    "ist_hauptstandort": false,
    "lng": 7.141112,
    "lat": 50.694262,
    "place_name": "Godesberger Straße 59, 53175 Bonn, Germany"
  },
  {
    "idx": 26,
    "firma": "KFZ-Sachverständigenbüro Nordbeck GmbH & Co. KG",
    "strasse": "Heerstrassenbenden 19",
    "plz": "53359",
    "ort": "Rheinbach",
    "ist_hauptstandort": false,
    "lng": 6.949383,
    "lat": 50.637158,
    "place_name": "Heerstraßenbenden 19, 53359 Rheinbach, Germany"
  },
  {
    "idx": 27,
    "firma": "Kfz Gutachtenzentrum Rheinland GmbH",
    "strasse": "Nachtigallenschlag 48",
    "plz": "53474",
    "ort": "Bad Neuenahr-Ahrweiler",
    "ist_hauptstandort": true,
    "lng": 7.1442,
    "lat": 50.537261,
    "place_name": "Nachtigallenschlag 48, 53474 Bad Neuenahr-Ahrweiler, Germany"
  },
  {
    "idx": 28,
    "firma": "Sachverständigenbüro Bietau",
    "strasse": "Feilweg 2 - 4",
    "plz": "53604",
    "ort": "Bad Honnef",
    "ist_hauptstandort": true,
    "lng": 7.226906,
    "lat": 50.634727,
    "place_name": "Feilweg 2, 53604 Bad Honnef, Germany"
  },
  {
    "idx": 29,
    "firma": "Ingenieurbüro Wester GmbH",
    "strasse": "Alte Heerstraße 36-40",
    "plz": "53757",
    "ort": "Sankt Augustin",
    "ist_hauptstandort": false,
    "lng": 7.192137,
    "lat": 50.766593,
    "place_name": "Alte Heerstraße, 53757 Sankt Augustin, Germany"
  },
  {
    "idx": 30,
    "firma": "Ingenieurbüro Keip Kfz-Sachverständiger",
    "strasse": "Otto-von-Guericke-Str. 15",
    "plz": "53757",
    "ort": "St. Augustin",
    "ist_hauptstandort": true,
    "lng": 7.182231,
    "lat": 50.788438,
    "place_name": "Otto-Von-Guericke-Straße 15, 53757 Sankt Augustin, Germany"
  },
  {
    "idx": 31,
    "firma": "Steinacker Ingenieurgesellschaft mbH",
    "strasse": "Metternichstraße 37",
    "plz": "54292",
    "ort": "Trier",
    "ist_hauptstandort": false,
    "lng": 6.675593,
    "lat": 49.770256,
    "place_name": "Metternichstraße 37, 54292 Trier, Germany"
  },
  {
    "idx": 32,
    "firma": "Kfz-Sachverständigenbüro Dahm",
    "strasse": "Zur Startbahn 1",
    "plz": "54634",
    "ort": "Bitburg",
    "ist_hauptstandort": true,
    "lng": 6.538439,
    "lat": 49.942036,
    "place_name": "Zur Startbahn 1, 54634 Bitburg, Germany"
  },
  {
    "idx": 33,
    "firma": "Kfz-Sachverständigenbüro Groß",
    "strasse": "Am Weyer 2a",
    "plz": "55252",
    "ort": "Mainz-Kastel",
    "ist_hauptstandort": true,
    "lng": 8.287807,
    "lat": 50.016368,
    "place_name": "Am Weyer 2a, 55252 Wiesbaden, Germany"
  },
  {
    "idx": 34,
    "firma": "Schaden Forum SV GmbH",
    "strasse": "Boelckestr. 68",
    "plz": "55252",
    "ort": "Wiesbaden",
    "ist_hauptstandort": false,
    "lng": 8.288446,
    "lat": 50.020386,
    "place_name": "Boelckestraße 68, 55252 Wiesbaden, Germany"
  },
  {
    "idx": 35,
    "firma": "KFZ-Sachverständiger Franc Gourgé",
    "strasse": "Mainzer Straße 153",
    "plz": "55299",
    "ort": "Nackenheim",
    "ist_hauptstandort": true,
    "lng": 8.328977,
    "lat": 49.921128,
    "place_name": "Mainzer Straße 153, 55299 Nackenheim, Germany"
  },
  {
    "idx": 36,
    "firma": "Steinacker Ingenieurgesellschaft mbH",
    "strasse": "Industriestr. 100",
    "plz": "55543",
    "ort": "Bad Kreuznach",
    "ist_hauptstandort": false,
    "lng": 7.894397,
    "lat": 49.852727,
    "place_name": "Industriestraße 100, 55543 Bad Kreuznach, Germany"
  },
  {
    "idx": 37,
    "firma": "KFZ-Sachverständigenbüro AL Inh. Tarkan Al",
    "strasse": "Bahnhofstraße 41 A",
    "plz": "55606",
    "ort": "Kirn",
    "ist_hauptstandort": true,
    "lng": 7.468624,
    "lat": 49.787538,
    "place_name": "Bahnhofstraße 41a, 55606 Kirn, Germany"
  },
  {
    "idx": 38,
    "firma": "Ingenieurbüro Beise & Partner",
    "strasse": "Friedrich-Mohr-Straße 1",
    "plz": "56070",
    "ort": "Koblenz",
    "ist_hauptstandort": true,
    "lng": 7.573929,
    "lat": 50.380384,
    "place_name": "Friedrich-Mohr-Straße 1, 56070 Koblenz, Germany"
  },
  {
    "idx": 39,
    "firma": "Steinacker Ingenieurgesellschaft mbH",
    "strasse": "An der Römervilla 10",
    "plz": "56070",
    "ort": "Koblenz",
    "ist_hauptstandort": true,
    "lng": 7.563763,
    "lat": 50.381012,
    "place_name": "An Der Römervilla 10, 56070 Koblenz, Germany"
  },
  {
    "idx": 40,
    "firma": "Sachverständigenbüro Tobias Busse",
    "strasse": "Dieter-Trennheuser-Str.9",
    "plz": "56170",
    "ort": "Bendorf",
    "ist_hauptstandort": true,
    "lng": 7.562198,
    "lat": 50.426998,
    "place_name": "Dieter-Trennheuser-Straße 9, 56170 Bendorf, Germany"
  },
  {
    "idx": 41,
    "firma": "Ingenieurbüro Nieland",
    "strasse": "Gewerbestraße 7",
    "plz": "56477",
    "ort": "Rennerod",
    "ist_hauptstandort": true,
    "lng": 8.065471,
    "lat": 50.598684,
    "place_name": "Gewerbestraße 7, 56477 Rennerod, Germany"
  },
  {
    "idx": 42,
    "firma": "Sachverständigenbüro Axel Pekrul",
    "strasse": "Dierdorfer Str. 163",
    "plz": "56564",
    "ort": "Neuwied",
    "ist_hauptstandort": true,
    "lng": 7.474106,
    "lat": 50.442452,
    "place_name": "Dierdorfer Straße 163, 56564 Neuwied, Germany"
  },
  {
    "idx": 43,
    "firma": "AVG Ingenieurbüro GmbH",
    "strasse": "Aubachstraße 78",
    "plz": "56567",
    "ort": "Neuwied",
    "ist_hauptstandort": true,
    "lng": 7.480094,
    "lat": 50.462765,
    "place_name": "Aubachstraße 78, 56567 Neuwied, Germany"
  },
  {
    "idx": 44,
    "firma": "Sachverständigenbüro Florian Mengert",
    "strasse": "Wehrhölzchenstraße 4",
    "plz": "56579",
    "ort": "Hardert",
    "ist_hauptstandort": true,
    "lng": 7.512372,
    "lat": 50.517407,
    "place_name": "Wehrhölzchenstraße 4, 56579 Hardert, Germany"
  },
  {
    "idx": 45,
    "firma": "Brockmann Ingenieure GmbH",
    "strasse": "August-Horch-Str.5",
    "plz": "56736",
    "ort": "Kottenheim",
    "ist_hauptstandort": true,
    "lng": 7.259004,
    "lat": 50.336788,
    "place_name": "August-Horch-Straße 5, 56736 Kottenheim, Germany"
  },
  {
    "idx": 46,
    "firma": "Ingenieurbüro Kneifel GbR",
    "strasse": "Untere Dorfstr. 109",
    "plz": "57074",
    "ort": "Siegen",
    "ist_hauptstandort": true,
    "lng": 8.049236,
    "lat": 50.8845,
    "place_name": "Untere Dorfstraße 109, 57074 Siegen, Germany"
  },
  {
    "idx": 47,
    "firma": "Ingenieurbüro Schuppert & Tenne GmbH",
    "strasse": "Leimbachstr.207-209",
    "plz": "57074",
    "ort": "Siegen",
    "ist_hauptstandort": true,
    "lng": 8.020999,
    "lat": 50.860891,
    "place_name": "Leimbachstraße, 57074 Siegen, Germany"
  },
  {
    "idx": 48,
    "firma": "Radeck & Prußnat GmbH & Co. KG",
    "strasse": "Ederstraße 69",
    "plz": "57319",
    "ort": "Bad Berleburg",
    "ist_hauptstandort": false,
    "lng": 8.383732,
    "lat": 51.03954,
    "place_name": "Ederstraße 69, 57319 Bad Berleburg, Germany"
  },
  {
    "idx": 49,
    "firma": "Ingenieurbüro Kneifel GbR",
    "strasse": "Bruchstr. 73",
    "plz": "57462",
    "ort": "Olpe",
    "ist_hauptstandort": true,
    "lng": 7.841786,
    "lat": 51.018603,
    "place_name": "Bruchstraße 73, 57462 Olpe, Germany"
  },
  {
    "idx": 50,
    "firma": "Bergk Sachverständige GmbH",
    "strasse": "Kölner Straße 12",
    "plz": "57610",
    "ort": "Altenkirchen",
    "ist_hauptstandort": true,
    "lng": 7.640667,
    "lat": 50.686652,
    "place_name": "Kölner Straße 12, 57610 Altenkirchen, Germany"
  },
  {
    "idx": 51,
    "firma": "Steinacker Ingenieurgesellschaft mbH",
    "strasse": "Kölner Str. 4",
    "plz": "57612",
    "ort": "Helmenzen-Altenkirchen",
    "ist_hauptstandort": false,
    "lng": 7.578008,
    "lat": 50.708698,
    "place_name": "Kölner Straße 4, 57612 Birnbach, Germany"
  },
  {
    "idx": 52,
    "firma": "Kfz Sachverständigenbüro Benjamin Kriesten",
    "strasse": "Alexanderstr. 65",
    "plz": "58097",
    "ort": "Hagen",
    "ist_hauptstandort": false,
    "lng": 7.46933,
    "lat": 51.37785,
    "place_name": "Alexanderstraße 65, 58097 Hagen, Germany"
  },
  {
    "idx": 53,
    "firma": "Kfz Sachverständigenbüro Benjamin Kriesten",
    "strasse": "Talstraße 140",
    "plz": "58515",
    "ort": "Lüdenscheid",
    "ist_hauptstandort": true,
    "lng": 7.586487,
    "lat": 51.204884,
    "place_name": "Talstraße 140, 58515 Lüdenscheid, Germany"
  },
  {
    "idx": 54,
    "firma": "KFZ-Sachverständigenbüro Schmidt",
    "strasse": "Kierspehagen 11",
    "plz": "58566",
    "ort": "Kierspe",
    "ist_hauptstandort": true,
    "lng": 7.575552,
    "lat": 51.120144,
    "place_name": "K 44 11, 58566 Kierspe, Germany"
  },
  {
    "idx": 55,
    "firma": "Ingenieur- und Sachverständigenbüro Harald Burgmann",
    "strasse": "Hohler Weg 32",
    "plz": "58636",
    "ort": "Iserlohn",
    "ist_hauptstandort": true,
    "lng": 7.702825,
    "lat": 51.37272,
    "place_name": "Hohler Weg 32, 58636 Iserlohn, Germany"
  },
  {
    "idx": 56,
    "firma": "Kfz-Sachverständigenbüro Palsherm GmbH",
    "strasse": "Lange Straße 287",
    "plz": "59067",
    "ort": "Hamm",
    "ist_hauptstandort": true,
    "lng": 7.764943,
    "lat": 51.668258,
    "place_name": "Lange Straße 287, 59067 Hamm, Germany"
  },
  {
    "idx": 57,
    "firma": "Kfz-Sachverständigenbüro Palsherm GmbH",
    "strasse": "Am Vatheuershof 10",
    "plz": "59229",
    "ort": "Ahlen",
    "ist_hauptstandort": false,
    "lng": 7.900603,
    "lat": 51.748394,
    "place_name": "Am Vatheuershof 10, 59229 Ahlen, Germany"
  },
  {
    "idx": 58,
    "firma": "Kfz-Sachverständigenbüro Palsherm GmbH",
    "strasse": "Zementstr. 1",
    "plz": "59269",
    "ort": "Beckum",
    "ist_hauptstandort": false,
    "lng": 8.043357,
    "lat": 51.764884,
    "place_name": "Zementstraße 1, 59269 Beckum, Germany"
  },
  {
    "idx": 59,
    "firma": "Sachverständigenbüro Blindeck + Feck",
    "strasse": "Büddenberg 91",
    "plz": "59423",
    "ort": "Unna-Königsborn",
    "ist_hauptstandort": true,
    "lng": 7.67124,
    "lat": 51.534598,
    "place_name": "Büddenberg 91, 59423 Unna, Germany"
  },
  {
    "idx": 60,
    "firma": "Kfz- Sachverständigenbüro Ralf Ostwald",
    "strasse": "Bökenförder Str. 167",
    "plz": "59557",
    "ort": "Lippstadt",
    "ist_hauptstandort": true,
    "lng": 8.358002,
    "lat": 51.665111,
    "place_name": "Bökenförder Straße 167, 59557 Lippstadt, Germany"
  },
  {
    "idx": 61,
    "firma": "Kfz-Sachverständigenbüro Martins & Kracht GbR",
    "strasse": "Talweg 34",
    "plz": "59846",
    "ort": "Sundern",
    "ist_hauptstandort": true,
    "lng": 8.01854,
    "lat": 51.329023,
    "place_name": "Talweg 34, 59846 Sundern, Germany"
  },
  {
    "idx": 62,
    "firma": "Lange & Brandenburg Ingenieurbüro für Kraftfahrzeugtechnik GbR",
    "strasse": "Keffelker Str. 32",
    "plz": "59929",
    "ort": "Brilon",
    "ist_hauptstandort": true,
    "lng": 8.581258,
    "lat": 51.397068,
    "place_name": "Keffelker Straße 32, 59929 Brilon, Germany"
  }
]
